[
  {
      "code": "AKL",
      "lat": "-37.0085",
      "lon": "174.782",
      "name": "Auckland International Airport",
      "city": "Manukau City",
      "state": "Auckland",
      "country": "New Zealand",
      "woeid": "12515151",
      "tz": "Pacific\/Auckland",
      "phone": "+64 9 256 8899",
      "type": "Airports",
      "email": "",
      "url": "http:\/\/www.auckland-airport.co.nz\/",
      "runway_length": "10800",
      "elev": "23",
      "icao": "NZAA",
      "direct_flights": "52",
      "carriers": "35"
    },
    {
      "code": "BHE",
      "lat": "-41.52",
      "lon": "173.87",
      "name": "Woodbourne Airport",
      "city": "Blenheim",
      "state": "Marlborough",
      "country": "New Zealand",
      "woeid": "12515181",
      "tz": "Pacific\/Auckland",
      "phone": "",
      "type": "Airports",
      "email": "",
      "url": "",
      "runway_length": "4675",
      "elev": "118",
      "icao": "NZWB",
      "direct_flights": "3",
      "carriers": "1"
    },
    {
      "code": "CHC",
      "lat": "-43.4859",
      "lon": "172.534",
      "name": "Christchurch International Airport",
      "city": "Christchurch",
      "state": "Canterbury",
      "country": "New Zealand",
      "woeid": "12515152",
      "tz": "Pacific\/Auckland",
      "phone": "+64 3 358 5029",
      "type": "Airports",
      "email": "",
      "url": "http:\/\/www.christchurch-airport.co.nz",
      "runway_length": "10785",
      "elev": "123",
      "icao": "NZCH",
      "direct_flights": "24",
      "carriers": "19"
    },
    {
      "code": "CHT",
      "lat": "-37.9723",
      "lon": "174.566",
      "name": "Karewa",
      "city": "Chatham Island",
      "state": "Canterbury",
      "country": "New Zealand",
      "woeid": "28645780",
      "tz": "Pacific\/Chatham",
      "phone": "",
      "type": "Airports",
      "email": "",
      "url": "",
      "runway_length": "4462",
      "elev": "43",
      "icao": "KCHT",
      "direct_flights": "3",
      "carriers": "1"
    },
    {
      "code": "DUD",
      "lat": "-45.9287",
      "lon": "170.199",
      "name": "Dunedin Airport",
      "city": "Outram",
      "state": "Otago",
      "country": "New Zealand",
      "woeid": "12515153",
      "tz": "Pacific\/Auckland",
      "phone": "+64 3 486 2879",
      "type": "Airports",
      "email": "",
      "url": "http:\/\/www.dnairport.co.nz",
      "runway_length": "6266",
      "elev": "4",
      "icao": "NZDN",
      "direct_flights": "6",
      "carriers": "4"
    },
    {
      "code": "GIS",
      "lat": "-38.66",
      "lon": "177.978",
      "name": "Gisborne Airport",
      "city": "Gisborne",
      "state": "Gisborne",
      "country": "New Zealand",
      "woeid": "12515154",
      "tz": "Pacific\/Auckland",
      "phone": "",
      "type": "Airports",
      "email": "",
      "url": "",
      "runway_length": "4300",
      "elev": "15",
      "icao": "NZGS",
      "direct_flights": "2",
      "carriers": "1"
    },
    {
      "code": "HKK",
      "lat": "-42.7141",
      "lon": "170.989",
      "name": "Hokitika Airport",
      "city": "Hokitika",
      "state": "West Coast",
      "country": "New Zealand",
      "woeid": "12523121",
      "tz": "Pacific\/Auckland",
      "phone": "",
      "type": "Airports",
      "email": "",
      "url": "",
      "runway_length": "4311",
      "elev": "146",
      "icao": "NZHK",
      "direct_flights": "1",
      "carriers": "1"
    },
    {
      "code": "HLZ",
      "lat": "-37.8632",
      "lon": "175.328",
      "name": "Hamilton Airport",
      "city": "Hamilton",
      "state": "Waikato",
      "country": "New Zealand",
      "woeid": "12515155",
      "tz": "Pacific\/Auckland",
      "phone": "",
      "type": "Airports",
      "email": "",
      "url": "",
      "runway_length": "5600",
      "elev": "172",
      "icao": "NZHN",
      "direct_flights": "9",
      "carriers": "2"
    },
    {
      "code": "IVC",
      "lat": "-46.4124",
      "lon": "168.309",
      "name": "Invercargill Airport",
      "city": "Invercargill",
      "state": "Southland",
      "country": "New Zealand",
      "woeid": "12515156",
      "tz": "Pacific\/Auckland",
      "phone": "",
      "type": "Airports",
      "email": "",
      "url": "http:\/\/www.invercargillairport.co.nz\/",
      "runway_length": "7250",
      "elev": "5",
      "icao": "NZNV",
      "direct_flights": "2",
      "carriers": "1"
    },
    {
      "code": "KAT",
      "lat": "-35.0714",
      "lon": "173.277",
      "name": "Kaitaia Aerodrome",
      "city": "Kaitaia",
      "state": "Northland",
      "country": "New Zealand",
      "woeid": "12515157",
      "tz": "Pacific\/Auckland",
      "phone": "",
      "type": "Airports",
      "email": "",
      "url": "",
      "runway_length": "5000",
      "elev": "270",
      "icao": "NZKT",
      "direct_flights": "1",
      "carriers": "1"
    },
    {
      "code": "KKE",
      "lat": "-35.2584",
      "lon": "173.908",
      "name": "Bay of Islands Airport",
      "city": "Kerikeri",
      "state": "Northland",
      "country": "New Zealand",
      "woeid": "12515158",
      "tz": "Pacific\/Auckland",
      "phone": "",
      "type": "Airports",
      "email": "",
      "url": "",
      "runway_length": "3900",
      "elev": "492",
      "icao": "NZKK",
      "direct_flights": "1",
      "carriers": "1"
    },
    {
      "code": "NPE",
      "lat": "-39.4689",
      "lon": "176.867",
      "name": "Hawkes Bay Airport",
      "city": "Napier",
      "state": "Hawke's Bay",
      "country": "New Zealand",
      "woeid": "12515159",
      "tz": "Pacific\/Auckland",
      "phone": "",
      "type": "Airports",
      "email": "",
      "url": "",
      "runway_length": "4300",
      "elev": "6",
      "icao": "NZNR",
      "direct_flights": "3",
      "carriers": "1"
    },
    {
      "code": "NPL",
      "lat": "-39.0067",
      "lon": "174.171",
      "name": "New Plymouth Airport",
      "city": "New Plymouth",
      "state": "Taranaki",
      "country": "New Zealand",
      "woeid": "12515161",
      "tz": "Pacific\/Auckland",
      "phone": "",
      "type": "Airports",
      "email": "",
      "url": "",
      "runway_length": "4300",
      "elev": "97",
      "icao": "NZNP",
      "direct_flights": "3",
      "carriers": "2"
    },
    {
      "code": "OAM",
      "lat": "-44.9679",
      "lon": "171.086",
      "name": "Oamaru Airport",
      "city": "Oamaru",
      "state": "Canterbury",
      "country": "New Zealand",
      "woeid": "12515162",
      "tz": "Pacific\/Auckland",
      "phone": "",
      "type": "Other Airport",
      "email": "",
      "url": "",
      "runway_length": "4200",
      "elev": "99",
      "icao": "NZOU",
      "direct_flights": "1",
      "carriers": "1"
    },
    {
      "code": "PMR",
      "lat": "-40.3227",
      "lon": "175.611",
      "name": "Palmerston North Airport",
      "city": "Palmerston North",
      "state": "Manawatu Wanganui",
      "country": "New Zealand",
      "woeid": "12515164",
      "tz": "Pacific\/Auckland",
      "phone": "",
      "type": "Airports",
      "email": "",
      "url": "http:\/\/www.pnairport.co.nz",
      "runway_length": "1",
      "elev": "148",
      "icao": "NZPM",
      "direct_flights": "5",
      "carriers": "2"
    },
    {
      "code": "ROT",
      "lat": "-38.1047",
      "lon": "176.314",
      "name": "Rotorua Airport",
      "city": "Rotorua",
      "state": "Bay Of Plenty",
      "country": "New Zealand",
      "woeid": "12515167",
      "tz": "Pacific\/Auckland",
      "phone": "",
      "type": "Airports",
      "email": "",
      "url": "",
      "runway_length": "4500",
      "elev": "936",
      "icao": "NZRO",
      "direct_flights": "3",
      "carriers": "3"
    },
    {
      "code": "TIU",
      "lat": "-44.3015",
      "lon": "171.223",
      "name": "Richard Pearse Airport",
      "city": "Timaru",
      "state": "Canterbury",
      "country": "New Zealand",
      "woeid": "12515170",
      "tz": "Pacific\/Auckland",
      "phone": "",
      "type": "Airports",
      "email": "",
      "url": "",
      "runway_length": null,
      "elev": null,
      "icao": "NZTU",
      "direct_flights": "1",
      "carriers": "1"
    },
    {
      "code": "TRG",
      "lat": "-37.6738",
      "lon": "176.19",
      "name": "Tauranga Airport",
      "city": "Tauranga",
      "state": "Bay Of Plenty",
      "country": "New Zealand",
      "woeid": "12515169",
      "tz": "Pacific\/Auckland",
      "phone": "",
      "type": "Airports",
      "email": "",
      "url": "",
      "runway_length": null,
      "elev": null,
      "icao": "NZTG",
      "direct_flights": "3",
      "carriers": "1"
    },
    {
      "code": "TUO",
      "lat": "-38.7383",
      "lon": "176.088",
      "name": "Taupo Aerodrome",
      "city": "Taupo",
      "state": "Waikato",
      "country": "New Zealand",
      "woeid": "12523249",
      "tz": "Pacific\/Auckland",
      "phone": "",
      "type": "Airports",
      "email": "",
      "url": "",
      "runway_length": null,
      "elev": null,
      "icao": "NZAP",
      "direct_flights": "3",
      "carriers": "1"
    },
    {
      "code": "WAG",
      "lat": "-39.9635",
      "lon": "175.029",
      "name": "Wanganui Airport",
      "city": "Wanganui",
      "state": "Manawatu Wanganui",
      "country": "New Zealand",
      "woeid": "12515174",
      "tz": "Pacific\/Auckland",
      "phone": "",
      "type": "Airports",
      "email": "",
      "url": "",
      "runway_length": "4500",
      "elev": "28",
      "icao": "NZWU",
      "direct_flights": "2",
      "carriers": "1"
    },
    {
      "code": "WHK",
      "lat": "-37.9213",
      "lon": "176.919",
      "name": "Whakatane Airport",
      "city": "Whakatane",
      "state": "Bay Of Plenty",
      "country": "New Zealand",
      "woeid": "12515177",
      "tz": "Pacific\/Auckland",
      "phone": "",
      "type": "Airports",
      "email": "",
      "url": "",
      "runway_length": "4200",
      "elev": "20",
      "icao": "NZWK",
      "direct_flights": "2",
      "carriers": "1"
    },
    {
      "code": "WKA",
      "lat": "-44.725",
      "lon": "169.243",
      "name": "Wanaka Airport",
      "city": "Wanaka",
      "state": "Otago",
      "country": "New Zealand",
      "woeid": "12515173",
      "tz": "Pacific\/Auckland",
      "phone": "",
      "type": "Airports",
      "email": "",
      "url": "",
      "runway_length": "2545",
      "elev": "1143",
      "icao": "NZWF",
      "direct_flights": "1",
      "carriers": "1"
    },
    {
      "code": "WLG",
      "lat": "-41.3295",
      "lon": "174.806",
      "name": "Wellington International Airport",
      "city": "Wellington",
      "state": "Wellington",
      "country": "New Zealand",
      "woeid": "12515175",
      "tz": "Pacific\/Auckland",
      "phone": "+64 4 385 5100",
      "type": "Airports",
      "email": "",
      "url": "http:\/\/www.wellington-airport.co.nz\/",
      "runway_length": "6350",
      "elev": "40",
      "icao": "NZWN",
      "direct_flights": "26",
      "carriers": "14"
    },
    {
      "code": "WRE",
      "lat": "-35.7705",
      "lon": "174.36",
      "name": "Whangarei Airport",
      "city": "Whangarei",
      "state": "Northland",
      "country": "New Zealand",
      "woeid": "12515178",
      "tz": "Pacific\/Auckland",
      "phone": "",
      "type": "Airports",
      "email": "",
      "url": "",
      "runway_length": "3600",
      "elev": "133",
      "icao": "NZWR",
      "direct_flights": "2",
      "carriers": "1"
    },
    {
      "code": "WSZ",
      "lat": "-41.7383",
      "lon": "171.58",
      "name": "Westport Airport",
      "city": "Westport",
      "state": "West Coast",
      "country": "New Zealand",
      "woeid": "12515176",
      "tz": "Pacific\/Auckland",
      "phone": "",
      "type": "Airports",
      "email": "",
      "url": "",
      "runway_length": "4200",
      "elev": "13",
      "icao": "NZWS",
      "direct_flights": "1",
      "carriers": "1"
    },
    {
      "code": "ZQN",
      "lat": "-45.0217",
      "lon": "168.737",
      "name": "Frankton Airport",
      "city": "Queenstown",
      "state": "Otago",
      "country": "New Zealand",
      "woeid": "12515166",
      "tz": "Pacific\/Auckland",
      "phone": "",
      "type": "Airports",
      "email": "",
      "url": "",
      "runway_length": "4400",
      "elev": "1173",
      "icao": "NZQN",
      "direct_flights": "6",
      "carriers": "6"
    }
  ]